[
	{
		"name": "Apollo Theather",
		"street": "253 W. 125th St.",
		"city": "New York",
		"state": "NY",
		"zip": "10027",
		"url": "https://www.apollotheater.org",
		"pos": {"lat": 40.810142, "lng": -73.950111} 
	},
	{
		"name": "Red Rooster",
		"street": "310 Malcolm X Blvd",
		"city": "New York",
		"state": "NY",
		"zip": "10027",
		"url": "https://www.redroosterharlem.com",
		"pos": {"lat": 40.808209, "lng": -73.944935} 
	},
	{
		"name": "Lenox Saphire",
		"street": "345 Malcolm X Blvd",
		"city": "New York",
		"state": "NY",
		"zip": "10027",
		"url": "https://www.lenoxsaphireharlem.com",
		"pos": {"lat": 40.809463, "lng": -73.944737} 
	},
	{
		"name": "Sylvia's",
		"street": "328 Malcolm X Blvd",
		"city": "New York",
		"state": "NY",
		"zip": "10027",
		"url": "https://www.sylviasrestaurant.com",
		"pos": {"lat": 40.808778, "lng": -73.944623} 
	},
	{
		"name": "Harlem Shake",
		"street": "100 W 124th St.",
		"city": "New York",
		"state": "NY",
		"zip": "10027",
		"url": "https://www.harlemshakenyc.com",
		"pos": {"lat": 40.807137, "lng": -73.946345} 
	},
	{
		"name": "National Jazz Museum",
		"street": "58 W 129th St.",
		"city": "New York",
		"state": "NY",
		"zip": "10027",
		"url": "https://www.jazzmuseuminharlem.org",
		"pos": {"lat": 40.809931, "lng": -73.943116} 
	},
	{
		"name": "Jacob",
		"street": "373 Malcolm X Blvd",
		"city": "New York",
		"state": "NY",
		"zip": "10027",
		"url": "https://www.jacobrestaurant.com",
		"pos": {"lat": 40.810345, "lng": -73.943931} 
	},
	{
		"name": "Shrine",
		"street": "2271 Adam Clayton Powell Jr Blvd",
		"city": "New York",
		"state": "NY",
		"zip": "10030",
		"url": "https://www.shrinenyc.com",
		"pos": {"lat": 40.814381, "lng": -73.944135} 
	},
	{
		"name": "Striver's Row",
		"street": "W 138th and W 139th Street",
		"city": "New York",
		"state": "NY",
		"zip": "10030",
		"pos": {"lat": 40.817405, "lng": -73.942391} 
	},
	{
		"name": "Abyssinian Baptist Church",
		"street": "132 W 138th St.",
		"city": "New York",
		"state": "NY",
		"zip": "10030",
		"url": "https://www.http://abyssinian.org/",
		"pos": {"lat": 40.816853, "lng": -73.941524} 
	},
	{
		"name": "Marcus Garvey Park",
		"street": "6316, Mt Morris Park W.",
		"city": "New York",
		"state": "NY",
		"zip": "10027",
		"pos": {"lat": 40.804631, "lng": -73.943673} 
	},
	{
		"name": "Studio Museum",
		"street": "144 W 125th St.",
		"city": "New York",
		"state": "NY",
		"zip": "10027",
		"url": "https://www.studiomuseum.org",
		"pos": {"lat": 40.808542, "lng": -73.947702} 
	},
	{
		"name": "The City College of New York",
		"street": "160 Convent Ave.",
		"city": "New York",
		"state": "NY",
		"zip": "10031",
		"url": "https://www.ccny.cuny.edu",
		"pos": {"lat": 40.820308, "lng": -73.949312} 
	},
	{
		"name": "Hamilton Grange Memorial",
		"street": "414 W. 141st.",
		"city": "New York",
		"state": "NY",
		"zip": "10031",
		"url": "https://www.nps.gov/hagr/index.htm",
		"pos": {"lat": 40.821477, "lng": -73.947327} 
	},
	{
		"name": "Amy's Ruth",
		"street": "115 W. 116th St.",
		"city": "New York",
		"state": "NY",
		"zip": "10026",
		"url": "http://www.amyruths.com",
		"pos": {"lat": 40.802685, "lng": -73.950295} 
	},
	{
		"name": "Harlem Tavern",
		"street": "2153 Frederick Douglass Blvd",
		"city": "New York",
		"state": "NY",
		"zip": "10026",
		"url": "http://www.harlemtavern.com",
		"pos": {"lat": 40.804942, "lng": -73.955493} 
	}

]